[
    {
        "id": 1,
        "name": "Foodtruck Libre-Service BriffO’ – Valence",
        "place": "Grenoble centre",
        "schedule": "Lundi au vendredi11h15 - 13h15",
        "url": "https://www.crous-grenoble.fr/restaurant/arsonval-truck-libre-service/",
        "cp": "26000",
        "address": "Rue Barthelemy de Laffemas",
        "city": "Valence",
        "phone": "04 76 57 44 96",
        "img": "https://ephoto.nuonet.fr/link/xyg19rjwi8nsuw0.jpg",
        "meals": [],
        "crous_id": 2,
        "lat": 44.917439,
        "lon": 4.915634
    },
    {
        "id": 2,
        "name": "Brasserie Latour-Maubourg – Valence",
        "place": "",
        "schedule": "7h45 -14h00Lundi au vendredi",
        "url": "https://www.crous-grenoble.fr/restaurant/brasserie-latour-maubourg-2/",
        "cp": "26000",
        "address": "3 Place la Tour-Maubourg",
        "city": "Valence",
        "phone": "",
        "img": "https://ephoto.nuonet.fr/link/dwo19rk0q9umujk.jpg",
        "meals": [],
        "crous_id": 2,
        "lat": 44.933503,
        "lon": 4.903863
    },
    {
        "id": 3,
        "name": "RU BriffO’ – Valence",
        "place": "",
        "schedule": "Ouvert du lundi au vendredi de 11h30 à 13h30 (fermé le soir)",
        "url": "https://www.crous-grenoble.fr/restaurant/briffo-3/",
        "cp": "26000",
        "address": "32 Rue Barthelemy de Laffemas",
        "city": "Valence",
        "phone": "04 75 56 48 18",
        "img": "https://ephoto.nuonet.fr/link/gut19rk0uphvjmo.jpg",
        "meals": [],
        "crous_id": 2,
        "lat": 44.91777,
        "lon": 4.915908
    },
    {
        "id": 4,
        "name": "Café des Sciences – Saint-Martin-d’Hères",
        "place": "",
        "schedule": "du lundi au jeudi de 8h00 à 21h00le vendredi de 8h00 à 18h00le samedi de 9h00 à 15h00",
        "url": "https://www.crous-grenoble.fr/restaurant/cafe-des-sciences-3/",
        "cp": "38400",
        "address": "1001 Avenue Centrale",
        "city": "Saint-Martin-d'Hères",
        "phone": "",
        "img": "https://ephoto.nuonet.fr/link/cgl19rk17w7vg1s.jpg",
        "meals": [],
        "crous_id": 2,
        "lat": 45.191966,
        "lon": 5.769929
    },
    {
        "id": 5,
        "name": "Café Littéraire – Saint-Martin-d’Hères",
        "place": "",
        "schedule": "du lundi au vendredi de 8h00 à 20h00le samedi de 9h00 à 15h00le dimanche lorsque la BU est ouverte de 9h00 à 15h00",
        "url": "https://www.crous-grenoble.fr/restaurant/cafe-litteraire-2/",
        "cp": "38400",
        "address": "1361 Rue des Résidences",
        "city": "Saint-Martin-d'Hères",
        "phone": "",
        "img": "https://ephoto.nuonet.fr/link/hix19rk1iripixs.jpg",
        "meals": [],
        "crous_id": 2,
        "lat": 45.189997,
        "lon": 5.772338
    },
    {
        "id": 6,
        "name": "Cafétéria d’Arsonval – Grenoble",
        "place": "Grenoble centre",
        "schedule": "Du lundi au vendrediMatin : 9h - 10h45 Midi : 11h15 - 13h30",
        "url": "https://www.crous-grenoble.fr/restaurant/cafeteria-darsonval-ferme-actuellement/",
        "cp": "38000",
        "address": "5 Rue d'Arsonval",
        "city": "Grenoble",
        "phone": "04 76 57 44 96",
        "img": "",
        "meals": [],
        "crous_id": 2,
        "lat": 45.192074,
        "lon": 5.717808
    },
    {
        "id": 7,
        "name": "Cafétéria EVE – Bourget-du-Lac",
        "place": "",
        "schedule": "lundi au vendredi : 11h30 à 13h30",
        "url": "https://www.crous-grenoble.fr/restaurant/cafeteria-eve-campus-bourget-du-lac/",
        "cp": "73370",
        "address": "Avenue du lac d'annecy",
        "city": "Le Bourget-du-Lac",
        "phone": "",
        "img": "",
        "meals": [],
        "crous_id": 2,
        "lat": 45.643197,
        "lon": 5.870901
    },
    {
        "id": 8,
        "name": "Cafétéria Hélice – Bourget-du-Lac",
        "place": "",
        "schedule": "7h30 - 10h50 et 11h20 - 14H00",
        "url": "https://www.crous-grenoble.fr/restaurant/cafeteria-helice-3/",
        "cp": "73370",
        "address": "Avenue du lac d'annecy",
        "city": "Le Bourget-du-Lac",
        "phone": "",
        "img": "https://ephoto.nuonet.fr/link/czn19rk2boyqzts.jpg",
        "meals": [],
        "crous_id": 2,
        "lat": 45.643197,
        "lon": 5.870901
    },
    {
        "id": 9,
        "name": "Cafétéria IUGA – Grenoble",
        "place": "",
        "schedule": "Lundi au vendredi9:30 - 13:30",
        "url": "https://www.crous-grenoble.fr/restaurant/cafeteria-iuga-geographie-2/",
        "cp": "38100",
        "address": "14 Avenue Marie Reynoard",
        "city": "Grenoble",
        "phone": "",
        "img": "https://ephoto.nuonet.fr/link/pwq19rk2st47ee8.jpg",
        "meals": [],
        "crous_id": 2,
        "lat": 45.165512,
        "lon": 5.728135
    },
    {
        "id": 10,
        "name": "Cafétéria IUT – Annecy-le-Vieux",
        "place": "",
        "schedule": "8h00-10h45 et 11h30-14h00",
        "url": "https://www.crous-grenoble.fr/restaurant/cafeteria-iut-dannecy-3/",
        "cp": "74940",
        "address": "9 Rue de l'Arc-en-Ciel",
        "city": "Annecy",
        "phone": "",
        "img": "",
        "meals": [],
        "crous_id": 2,
        "lat": 45.920391,
        "lon": 6.154122
    },
    {
        "id": 11,
        "name": "Cafétéria Jacob – Jacob-Bellecombette Chambéry",
        "place": "Chambery",
        "schedule": "Du lundi au vendredi, de 11h20 à 14h00",
        "url": "https://www.crous-grenoble.fr/restaurant/cafeteria-jacob/",
        "cp": "55000",
        "address": "Rue Robert Rousselle",
        "city": "Bar-le-Duc",
        "phone": "",
        "img": "",
        "meals": [],
        "crous_id": 2,
        "lat": 48.773538,
        "lon": 5.179132
    },
    {
        "id": 12,
        "name": "Cafétéria La Guérite – La Tronche",
        "place": "",
        "schedule": "Lundi au vendredi : 9:30 - 10:30 et 11:00 - 13:30",
        "url": "https://www.crous-grenoble.fr/restaurant/cafeteria-la-guerite-la-tronche/",
        "cp": "38700",
        "address": "24 Avenue des Maquis du Grésivaudan",
        "city": "La Tronche",
        "phone": "",
        "img": "",
        "meals": [],
        "crous_id": 2,
        "lat": 45.206135,
        "lon": 5.752382
    },
    {
        "id": 13,
        "name": "Cafétéria Maison de l’INP – Saint-Martin-d’Hères",
        "place": "",
        "schedule": "du lundi au vendredi de 8h00 à 14h00",
        "url": "https://www.crous-grenoble.fr/restaurant/cafeteria-maison-de-linp-2/",
        "cp": "38400",
        "address": "730 Rue de la Piscine",
        "city": "Saint-Martin-d'Hères",
        "phone": "",
        "img": "",
        "meals": [],
        "crous_id": 2,
        "lat": 45.194426,
        "lon": 5.76538
    },
    {
        "id": 14,
        "name": "Cafétéria Polytech – Annecy-le-Vieux",
        "place": "",
        "schedule": "Lundi au vendredi 8h00-10h45 et 11h30-14h00",
        "url": "https://www.crous-grenoble.fr/restaurant/cafeteria-polytech-annecy-3/",
        "cp": "74940",
        "address": "2 Allée Louis de Broglie",
        "city": "Annecy",
        "phone": "",
        "img": "https://www.crous-grenoble.fr/wp-content/uploads/sites/7/2018/09/polytech.jpg",
        "meals": [],
        "crous_id": 2,
        "lat": 45.919839,
        "lon": 6.156274
    },
    {
        "id": 15,
        "name": "Cafétéria Polytech – Bourget-du-Lac",
        "place": "",
        "schedule": "11H20 - 14H00",
        "url": "https://www.crous-grenoble.fr/restaurant/cafeteria-polytech-bourget-3/",
        "cp": "73370",
        "address": "Avenue lac du bourget",
        "city": "Le Bourget-du-Lac",
        "phone": "",
        "img": "",
        "meals": [],
        "crous_id": 2,
        "lat": 45.64536,
        "lon": 5.869466
    },
    {
        "id": 16,
        "name": "Cafétéria Polytech – Grenoble",
        "place": "Grenoble Agglo",
        "schedule": "Ouverture :de 9h à 16h du lundi au mercredide 9h à 14h30 le jeudide 9h à 15h30 le vendredi",
        "url": "https://www.crous-grenoble.fr/restaurant/cafeteria-polytechgrenoble/",
        "cp": "38400",
        "address": "28 Avenue Benoit Frachon",
        "city": "Saint-Martin-d'Hères",
        "phone": "",
        "img": "",
        "meals": [],
        "crous_id": 2,
        "lat": 45.184323,
        "lon": 5.753048
    },
    {
        "id": 17,
        "name": "Cafétéria Stendhal – Saint-Martin-d’Hères",
        "place": "",
        "schedule": "du lundi au vendredi de 8h15 à 14h00",
        "url": "https://www.crous-grenoble.fr/restaurant/cafeteria-stendhal-2/",
        "cp": "38400",
        "address": "Rue des Universites",
        "city": "Saint-Martin-d'Hères",
        "phone": "",
        "img": "",
        "meals": [],
        "crous_id": 2,
        "lat": 45.188078,
        "lon": 5.769394
    },
    {
        "id": 18,
        "name": "Cafétéria Ufraps – Saint-Martin-d’Hères",
        "place": "",
        "schedule": "du lundi au vendredi de 7h30 à 14h00",
        "url": "https://www.crous-grenoble.fr/restaurant/cafeteria-ufraps-3/",
        "cp": "38400",
        "address": "Rue de la Piscine",
        "city": "Saint-Martin-d'Hères",
        "phone": "",
        "img": "http://www.crous-grenoble.fr/wp-content/uploads/sites/7/2017/01/20170106-102814.jpg",
        "meals": [],
        "crous_id": 2,
        "lat": 45.194065,
        "lon": 5.762338
    },
    {
        "id": 19,
        "name": "Crous and Go – Grenoble Ensag",
        "place": "",
        "schedule": "",
        "url": "https://www.crous-grenoble.fr/restaurant/crous-and-go-grenoble-ensag/",
        "cp": "38000",
        "address": "Avenue de Vizille",
        "city": "Grenoble",
        "phone": "",
        "img": "",
        "meals": [],
        "crous_id": 2,
        "lat": 45.186082,
        "lon": 5.716411
    },
    {
        "id": 20,
        "name": "Crous and Go – Grenoble Maison des étudiants",
        "place": "",
        "schedule": "",
        "url": "https://www.crous-grenoble.fr/restaurant/crous-and-go-grenoble-maison-des-etudiants/",
        "cp": "38000",
        "address": "6 Place Pasteur",
        "city": "Grenoble",
        "phone": "",
        "img": "",
        "meals": [],
        "crous_id": 2,
        "lat": 45.183763,
        "lon": 5.73061
    },
    {
        "id": 21,
        "name": "Crous and Go – Grenoble Ocellia",
        "place": "Grenoble Agglo",
        "schedule": "",
        "url": "https://www.crous-grenoble.fr/restaurant/crous-go-icm/",
        "cp": "38130",
        "address": "3 Avenue Victor Hugo",
        "city": "Échirolles",
        "phone": "",
        "img": "",
        "meals": [],
        "crous_id": 2,
        "lat": 45.154787,
        "lon": 5.713002
    },
    {
        "id": 22,
        "name": "Foodtruck GreEn-ER – Grenoble",
        "place": "",
        "schedule": "",
        "url": "https://www.crous-grenoble.fr/restaurant/crous-truck-bu-droit-et-lettres-3/",
        "cp": "44000",
        "address": "5 Rue d'Arsonval",
        "city": "Nantes",
        "phone": "",
        "img": "",
        "meals": [],
        "crous_id": 2,
        "lat": 47.225864,
        "lon": -1.580189
    },
    {
        "id": 23,
        "name": "Jacob Café – Jacob-Bellecombette Chambéry",
        "place": "",
        "schedule": "du lundi au jeudi 7h45-17H00 vendredi : 7h45 -15h",
        "url": "https://www.crous-grenoble.fr/restaurant/jacob-cafe-3/",
        "cp": "73000",
        "address": "3 Rue Jean Baptiste Richard",
        "city": "Jacob-Bellecombette",
        "phone": "",
        "img": "http://www.crous-grenoble.fr/wp-content/uploads/sites/7/2017/02/Photos-Jacob-CafSo-006.jpg",
        "meals": [],
        "crous_id": 2,
        "lat": 45.558021,
        "lon": 5.909324
    },
    {
        "id": 24,
        "name": "Cafétéria DLST – Saint-Martin-d’Hères",
        "place": "",
        "schedule": "du lundi au vendredi de 7h30 à 14h00",
        "url": "https://www.crous-grenoble.fr/restaurant/kfet-du-dlst-3/",
        "cp": "38400",
        "address": "480 Avenue Centrale",
        "city": "Saint-Martin-d'Hères",
        "phone": "",
        "img": "http://www.crous-grenoble.fr//wp-content/uploads/sites/7/2018/06/IMG-2181.jpg",
        "meals": [],
        "crous_id": 2,
        "lat": 45.191614,
        "lon": 5.765331
    },
    {
        "id": 25,
        "name": "Cafétéria Polygone – Grenoble",
        "place": "",
        "schedule": "9h30 - 14h00",
        "url": "https://www.crous-grenoble.fr/restaurant/kiosque-green-er-2/",
        "cp": "38000",
        "address": "23 Avenue des Martyrs",
        "city": "Grenoble",
        "phone": "",
        "img": "",
        "meals": [],
        "crous_id": 2,
        "lat": 45.203522,
        "lon": 5.701859
    },
    {
        "id": 26,
        "name": "La Streetfood Diderot – Saint-Martin-d’Hères",
        "place": "",
        "schedule": "du lundi au vendrediLibre-service Illico presto : 10h - 17h00Point burger : 11h20 - 14h00Dolce vita : 11h20 - 14h00 Pause gourmande : 8h00 - 17h00",
        "url": "https://www.crous-grenoble.fr/restaurant/la-street-food-diderot-3/",
        "cp": "38400",
        "address": "40 Rue des Universites",
        "city": "Saint-Martin-d'Hères",
        "phone": "",
        "img": "",
        "meals": [],
        "crous_id": 2,
        "lat": 45.190708,
        "lon": 5.769072
    },
    {
        "id": 27,
        "name": "Libre-Service InBox  – Saint-Martin-d’Hères",
        "place": "",
        "schedule": "du lundi au vendredi de 9h00 à 14h00",
        "url": "https://www.crous-grenoble.fr/restaurant/libre-service-in-box-3/",
        "cp": "38610",
        "address": "Rue de la Papeterie",
        "city": "Gières",
        "phone": "",
        "img": "",
        "meals": [],
        "crous_id": 2,
        "lat": 45.199113,
        "lon": 5.774513
    },
    {
        "id": 28,
        "name": "Libre-service L’Intermède – Saint-Martin-d’Hères",
        "place": "",
        "schedule": "du lundi au vendredi de 8h00 à 20h00",
        "url": "https://www.crous-grenoble.fr/restaurant/libre-service-lintermede/",
        "cp": "38400",
        "address": "Avenue Centrale",
        "city": "Saint-Martin-d'Hères",
        "phone": "",
        "img": "",
        "meals": [],
        "crous_id": 2,
        "lat": 45.191778,
        "lon": 5.767253
    },
    {
        "id": 29,
        "name": "L’Oiseau Blanc – Saint-Martin-d’Hères",
        "place": "",
        "schedule": "",
        "url": "https://www.crous-grenoble.fr/restaurant/loiseau-blanc-3/",
        "cp": "38400",
        "address": "40 Rue des Universites",
        "city": "Saint-Martin-d'Hères",
        "phone": "04 76 82 40 80",
        "img": "",
        "meals": [],
        "crous_id": 2,
        "lat": 45.190708,
        "lon": 5.769072
    },
    {
        "id": 30,
        "name": "Mandela Café – Grenoble",
        "place": "",
        "schedule": "Lundi au vendredi9h30 à 13h30",
        "url": "https://www.crous-grenoble.fr/restaurant/mandela-cafe-2/",
        "cp": "38000",
        "address": "Rue Félix Esclangon",
        "city": "Grenoble",
        "phone": "",
        "img": "http://appli.crous-grenoble.fr/fichiers/image/restaurant/minatec_ru.jpg",
        "meals": [],
        "crous_id": 2,
        "lat": 45.193693,
        "lon": 5.708632
    },
    {
        "id": 31,
        "name": "Pizzeria l’Hélice – Bourget-du-Lac",
        "place": "",
        "schedule": "11h20 - 13h40",
        "url": "https://www.crous-grenoble.fr/restaurant/pizzeria-de-lhelice-2/",
        "cp": "73370",
        "address": "Avenue du lac d'annecy",
        "city": "Le Bourget-du-Lac",
        "phone": "",
        "img": "",
        "meals": [],
        "crous_id": 2,
        "lat": 45.643197,
        "lon": 5.870901
    },
    {
        "id": 32,
        "name": "Pizzéria Tutti Quanti – Saint-Martin-d’Hères",
        "place": "",
        "schedule": "du lundi au vendredi de 11h30 à 13h30",
        "url": "https://www.crous-grenoble.fr/restaurant/pizzeria-tutti-quanti-2/",
        "cp": "38400",
        "address": "21 allée condillac",
        "city": "Saint-Martin-d'Hères",
        "phone": "",
        "img": "http://www.crous-grenoble.fr/wp-content/uploads/sites/7/2014/09/TuttiQuanti-Web.jpg",
        "meals": [],
        "crous_id": 2,
        "lat": 45.188737,
        "lon": 5.774065
    },
    {
        "id": 33,
        "name": "Restaurant agrée – Centre Hospitalier Alpes Isère Saint-Egrève – IFSI",
        "place": "",
        "schedule": "",
        "url": "https://www.crous-grenoble.fr/restaurant/restaurant-agree-centre-hospitalier-alpes-isere-saint-egreve-ifsi/",
        "cp": "38120",
        "address": "3 rue de la gare",
        "city": "Saint-Égrève",
        "phone": "",
        "img": "",
        "meals": [],
        "crous_id": 2,
        "lat": 45.23444,
        "lon": 5.675473
    },
    {
        "id": 34,
        "name": "Restaurant agrée – Centre Hospitalier Annecy Genevois – IFSI",
        "place": "",
        "schedule": "",
        "url": "https://www.crous-grenoble.fr/restaurant/restaurant-agree-centre-hospitalier-annecy-genevois-ifsi/",
        "cp": "74370",
        "address": "1 Avenue de l’Hôpital",
        "city": "Epagny Metz-Tessy",
        "phone": "",
        "img": "",
        "meals": [],
        "crous_id": 2,
        "lat": 45.934179,
        "lon": 6.11726
    },
    {
        "id": 35,
        "name": "Restaurant agrée – Centre Hospitalier Ardèche Nord",
        "place": "",
        "schedule": "",
        "url": "https://www.crous-grenoble.fr/restaurant/restaurant-agree-centre-hospitalier-ardeche-nord/",
        "cp": "07100",
        "address": "1 Rue du Bon Pasteur",
        "city": "Annonay",
        "phone": "",
        "img": "",
        "meals": [],
        "crous_id": 2,
        "lat": 45.241769,
        "lon": 4.665458
    },
    {
        "id": 36,
        "name": "Restaurant agrée – Centre Hospitalier d’Ardèche Méridionale – IFSI",
        "place": "",
        "schedule": "",
        "url": "https://www.crous-grenoble.fr/restaurant/restaurant-agree-centre-hospitalier-dardeche-meridionale-ifsi/",
        "cp": "07200",
        "address": "Avenue de Bellande",
        "city": "Aubenas",
        "phone": "",
        "img": "",
        "meals": [],
        "crous_id": 2,
        "lat": 44.60878,
        "lon": 4.39424
    },
    {
        "id": 37,
        "name": "Restaurant agrée – Centre Hospitalier Pierre OUDOT",
        "place": "",
        "schedule": "",
        "url": "https://www.crous-grenoble.fr/restaurant/restaurant-agree-centre-hospitalier-pierre-oudot/",
        "cp": "38300",
        "address": "30 Avenue du Médipôle",
        "city": "Bourgoin-Jallieu",
        "phone": "",
        "img": "",
        "meals": [],
        "crous_id": 2,
        "lat": 45.596672,
        "lon": 5.244289
    },
    {
        "id": 38,
        "name": "Restaurant agrée – Hopitaux du Léman – CHR Thonon",
        "place": "",
        "schedule": "",
        "url": "https://www.crous-grenoble.fr/restaurant/restaurant-agree-hopitaux-du-leman-chr-thonon/",
        "cp": "74200",
        "address": "3 Avenue de la Dame",
        "city": "Thonon-les-Bains",
        "phone": "",
        "img": "",
        "meals": [],
        "crous_id": 2,
        "lat": 46.360712,
        "lon": 6.478036
    },
    {
        "id": 39,
        "name": "Restaurant agrée – IFSI de Privas",
        "place": "",
        "schedule": "",
        "url": "https://www.crous-grenoble.fr/restaurant/restaurant-agree-ifsi-de-privas/",
        "cp": "07000",
        "address": "19 Cours du Temple",
        "city": "Privas",
        "phone": "",
        "img": "",
        "meals": [],
        "crous_id": 2,
        "lat": 44.732868,
        "lon": 4.59407
    },
    {
        "id": 40,
        "name": "Restaurant agrée – Lycée Galilée",
        "place": "",
        "schedule": "",
        "url": "https://www.crous-grenoble.fr/restaurant/restaurant-agree-lycee-galilee/",
        "cp": "38200",
        "address": "124 Avenue Général Leclerc",
        "city": "Vienne",
        "phone": "",
        "img": "",
        "meals": [],
        "crous_id": 2,
        "lat": 45.504195,
        "lon": 4.854567
    },
    {
        "id": 41,
        "name": "Restaurant agrée – Lycée Louis LACHENAL",
        "place": "",
        "schedule": "",
        "url": "https://www.crous-grenoble.fr/restaurant/restaurant-agree-lycee-louis-lachenal/",
        "cp": "74370",
        "address": "335 Route de Champ Farçon",
        "city": "Argonay",
        "phone": "",
        "img": "",
        "meals": [],
        "crous_id": 2,
        "lat": 45.937977,
        "lon": 6.133046
    },
    {
        "id": 42,
        "name": "RU Condillac – Saint-Martin-d’Hères",
        "place": "",
        "schedule": "du lundi au vendredi de 11h20 à 13h45",
        "url": "https://www.crous-grenoble.fr/restaurant/ru-condillac-3/",
        "cp": "38400",
        "address": "115 allée condillac",
        "city": "Saint-Martin-d'Hères",
        "phone": "04 76 82 76 38",
        "img": "http://appli.crous-grenoble.fr/fichiers/image/restaurant/rucondillac_tb.jpg",
        "meals": [],
        "crous_id": 2,
        "lat": 45.188377,
        "lon": 5.773704
    },
    {
        "id": 43,
        "name": "RU d’Annecy – Annecy-le-Vieux",
        "place": "",
        "schedule": "lundi au vendredide 11h30 à 13h30",
        "url": "https://www.crous-grenoble.fr/restaurant/ru-dannecy-3/",
        "cp": "74940",
        "address": "3 Chemin de Bellevue",
        "city": "Annecy",
        "phone": "04 79 25 35 23",
        "img": "",
        "meals": [],
        "crous_id": 2,
        "lat": 45.918992,
        "lon": 6.156833
    },
    {
        "id": 44,
        "name": "RU d’Arsonval – Grenoble",
        "place": "Grenoble centre",
        "schedule": "Lundi au vendredi11h15 - 13h30",
        "url": "https://www.crous-grenoble.fr/restaurant/ru-darsonval-ferme-actuellement/",
        "cp": "38000",
        "address": "5 Rue d'Arsonval",
        "city": "Grenoble",
        "phone": "04 76 57 44 96",
        "img": "https://appli.crous-grenoble.fr/fichiers/image/restaurant/Arsonval.JPG",
        "meals": [],
        "crous_id": 2,
        "lat": 45.192074,
        "lon": 5.717808
    },
    {
        "id": 45,
        "name": "RU Jacob-Bellecombette – Jacob-Bellecombette Chambéry",
        "place": "",
        "schedule": "Le midi, du lundi au vendredi : de 11h20 à 13h40",
        "url": "https://www.crous-grenoble.fr/restaurant/ru-de-jacob-bellecombette-3/",
        "cp": "55000",
        "address": "Rue Robert Rousselle",
        "city": "Bar-le-Duc",
        "phone": "",
        "img": "http://appli.crous-grenoble.fr/fichiers/image/chambery/RestoU_2.jpg",
        "meals": [],
        "crous_id": 2,
        "lat": 48.773538,
        "lon": 5.179132
    },
    {
        "id": 46,
        "name": "RU Diderot – Saint-Martin-d’Hères",
        "place": "",
        "schedule": "du lundi au vendredi de 11h20 à 13h45",
        "url": "https://www.crous-grenoble.fr/restaurant/ru-diderot-3/",
        "cp": "38400",
        "address": "Rue des Universites",
        "city": "Saint-Martin-d'Hères",
        "phone": "04 76 82 40 86",
        "img": "https://ephoto.nuonet.fr/link/jdu19lcvlucyuww.jpg",
        "meals": [],
        "crous_id": 2,
        "lat": 45.188078,
        "lon": 5.769394
    },
    {
        "id": 47,
        "name": "RU du Home des Etudiants – Grenoble",
        "place": "",
        "schedule": "Lundi au Vendredi11h30 - 13h30",
        "url": "https://www.crous-grenoble.fr/restaurant/ru-du-home-des-etudiants-2/",
        "cp": "38000",
        "address": "2 Avenue Général Champon",
        "city": "Grenoble",
        "phone": "04 76 56 74 03",
        "img": "",
        "meals": [],
        "crous_id": 2,
        "lat": 45.183036,
        "lon": 5.731093
    },
    {
        "id": 48,
        "name": "RU GreEn-ER – Grenoble",
        "place": "",
        "schedule": "Du lundi au vendrediPour le RU  11h30 - 13h30",
        "url": "https://www.crous-grenoble.fr/restaurant/ru-green-3/",
        "cp": "38000",
        "address": "21 Avenue des Martyrs",
        "city": "Grenoble",
        "phone": "",
        "img": "https://www.crous-grenoble.fr/wp-content/uploads/sites/7/2015/09/RuGreen2-199x300.jpg",
        "meals": [],
        "crous_id": 2,
        "lat": 45.20254,
        "lon": 5.703284
    },
    {
        "id": 49,
        "name": "RU La Chautagne – Bourget-du-Lac",
        "place": "",
        "schedule": "midi : 11h20 - 13h40soir : 18h30 - 19h30 (lun. au jeudi.)",
        "url": "https://www.crous-grenoble.fr/restaurant/ru-la-chautagne-3/",
        "cp": "73370",
        "address": "Allée lac de côme",
        "city": "Le Bourget-du-Lac",
        "phone": "04 79 25 23 83",
        "img": "",
        "meals": [],
        "crous_id": 2,
        "lat": 45.644064,
        "lon": 5.874614
    },
    {
        "id": 50,
        "name": "RU Le Cadran Solaire – La Tronche",
        "place": "",
        "schedule": "Du lundi au vendredi : 11:30 - 13:30",
        "url": "https://www.crous-grenoble.fr/restaurant/ru-le-cadran-solaire-la-tronche/",
        "cp": "38700",
        "address": "24 Avenue des Maquis du Grésivaudan",
        "city": "La Tronche",
        "phone": "",
        "img": "",
        "meals": [],
        "crous_id": 2,
        "lat": 45.206135,
        "lon": 5.752382
    },
    {
        "id": 51,
        "name": "RU L’Epicéa – Saint-Martin-d’Hères",
        "place": "",
        "schedule": "du lundi au vendredi de 11h 20 à 13h45",
        "url": "https://www.crous-grenoble.fr/restaurant/ru-lepicea-3/",
        "cp": "38400",
        "address": "Dom Universit Voie 1 à",
        "city": "Saint-Martin-d'Hères",
        "phone": "",
        "img": "",
        "meals": [],
        "crous_id": 2,
        "lat": 45.191889,
        "lon": 5.76901
    },
    {
        "id": 52,
        "name": "RU L’Intermède – Saint-Martin-d’Hères",
        "place": "",
        "schedule": "du lundi au vendredi de 11h10 à 13h45",
        "url": "https://www.crous-grenoble.fr/restaurant/ru-lintermede/",
        "cp": "38400",
        "address": "Avenue Centrale",
        "city": "Saint-Martin-d'Hères",
        "phone": "",
        "img": "https://www.crous-grenoble.f/wp-content/uploads/sites/7/2018/01/INTERMEZZO.jpg",
        "meals": [],
        "crous_id": 2,
        "lat": 45.191778,
        "lon": 5.767253
    },
    {
        "id": 53,
        "name": "RU Minatec – Grenoble",
        "place": "",
        "schedule": "Lundi au vendredi11h30 - 13h30",
        "url": "https://www.crous-grenoble.fr/restaurant/ru-minatec-2/",
        "cp": "38000",
        "address": "61 Rue Félix Esclangon",
        "city": "Grenoble",
        "phone": "",
        "img": "",
        "meals": [],
        "crous_id": 2,
        "lat": 45.194606,
        "lon": 5.710152
    },
    {
        "id": 54,
        "name": "RU Tom Morel – Annecy-le-Vieux",
        "place": "Annecy",
        "schedule": "lundi au vendredide 11h30 à 13h30",
        "url": "https://www.crous-grenoble.fr/restaurant/ru-tom-morel/",
        "cp": "38610",
        "address": "Domaine universitaire",
        "city": "Gières",
        "phone": "04 50 09 53 08",
        "img": "",
        "meals": [],
        "crous_id": 2,
        "lat": 45.195301,
        "lon": 5.774198
    }
]