[
    {
        "id": 1,
        "name": "Cafétéria Archimède",
        "place": "Lyon Tech-la Doua Villeurbanne",
        "schedule": "Du lundi au vendredi7h30 à 16h",
        "url": "https://www.crous-lyon.fr/restaurant/cafeteria-archimede/",
        "cp": "69100",
        "address": "7a Avenue Albert Einstein",
        "city": "Villeurbanne",
        "phone": "04 78 93 34 21",
        "img": "https://ephoto.nuonet.fr/link/tjw19o9enk9xelc.jpeg",
        "meals": [],
        "crous_id": 1,
        "lat": 45.78221,
        "lon": 4.877652
    },
    {
        "id": 2,
        "name": "Cafétéria Astrée",
        "place": "Lyon Tech-la Doua Villeurbanne",
        "schedule": "Du lundi au vendredi 7h30 à 16h",
        "url": "https://www.crous-lyon.fr/restaurant/cafeteria-astree/",
        "cp": "69100",
        "address": "6 Avenue Gaston Berger",
        "city": "Villeurbanne",
        "phone": "04 72 44 62 76",
        "img": "https://ephoto.nuonet.fr/link/fsv19o9dk6s0f28.jpeg",
        "meals": [],
        "crous_id": 1,
        "lat": 45.783486,
        "lon": 4.870677
    },
    {
        "id": 3,
        "name": "Cafétéria Bistrot de la Manu",
        "place": "Manufacture",
        "schedule": "Cour nord - Sous-sol (bâtiment C) Lundi au jeudi de 7h30 à 18h Vendredi de 7h30 à 17h",
        "url": "https://www.crous-lyon.fr/restaurant/cafeteria-bistrot-de-la-manu/",
        "cp": "69008",
        "address": "6 Rue Professeur Rollet",
        "city": "Lyon",
        "phone": "04 72 78 98 74",
        "img": "https://ephoto.nuonet.fr/link/zum19o99ar74wow.jpeg",
        "meals": [],
        "crous_id": 1,
        "lat": 45.748368,
        "lon": 4.861379
    },
    {
        "id": 4,
        "name": "Cafétéria Bistrot de Roanne",
        "place": "Roanne",
        "schedule": "Du lundi au vendredi De 8h30 à 15h",
        "url": "https://www.crous-lyon.fr/restaurant/cafeteria-bistrot-de-roanne/",
        "cp": "42300",
        "address": "12 Avenue de Paris",
        "city": "Roanne",
        "phone": "06 10 09 68 11",
        "img": "https://ephoto.nuonet.fr/link/chf19ocgj2hbcv4.jpeg",
        "meals": [],
        "crous_id": 1,
        "lat": 46.043412,
        "lon": 4.072015
    },
    {
        "id": 5,
        "name": "Cafétéria Carnot",
        "place": "Lyon 2ème",
        "schedule": "Du lundi au vendredi 7h30 à 16h00",
        "url": "https://www.crous-lyon.fr/restaurant/cafeteria-carnot/",
        "cp": "69002",
        "address": "23 Place Carnot",
        "city": "Lyon",
        "phone": "04 26 84 52 30",
        "img": "https://ephoto.nuonet.fr/link/fca19oc276g8cw0.jpeg",
        "meals": [],
        "crous_id": 1,
        "lat": 45.751427,
        "lon": 4.82696
    },
    {
        "id": 6,
        "name": "Cafétéria Cybercafé de la Doua",
        "place": "Lyon Tech-la Doua Villeurbanne",
        "schedule": "Du lundi au vendredi7h30 à 16h",
        "url": "https://www.crous-lyon.fr/restaurant/cafeteria-cybercafe-de-la-doua/",
        "cp": "69100",
        "address": "24 Avenue Gaston Berger",
        "city": "Villeurbanne",
        "phone": "04 72 44 79 52",
        "img": "https://ephoto.nuonet.fr/link/bbn19o9fr8fghxc.jpeg",
        "meals": [],
        "crous_id": 1,
        "lat": 45.780925,
        "lon": 4.870886
    },
    {
        "id": 7,
        "name": "Cafétéria Cybercafé IUT Gratte-Ciel",
        "place": "IUT Gratte Ciel Villeurbanne",
        "schedule": "Du lundi au vendredi7h30 à 15h45",
        "url": "https://www.crous-lyon.fr/restaurant/cafeteria-cybercafe-iut-gratte-ciel/",
        "cp": "69100",
        "address": "17 Rue de France",
        "city": "Villeurbanne",
        "phone": "04 78 03 53 48",
        "img": "https://ephoto.nuonet.fr/link/brp19o9h3dx9stc.jpeg",
        "meals": [],
        "crous_id": 1,
        "lat": 45.76714,
        "lon": 4.886973
    },
    {
        "id": 8,
        "name": "Cafétéria des Quais",
        "place": "Les Quais - Berges du Rhône",
        "schedule": "Du lundi au vendredi 7h45 à 16h15",
        "url": "https://www.crous-lyon.fr/restaurant/cafeteria-des-quais/",
        "cp": "69007",
        "address": "4 Rue de l'Université",
        "city": "Lyon",
        "phone": "04 72 72 98 01",
        "img": "https://ephoto.nuonet.fr/link/zam19obdrhg1s1s.jpeg",
        "meals": [],
        "crous_id": 1,
        "lat": 45.751424,
        "lon": 4.837792
    },
    {
        "id": 9,
        "name": "Cafétéria des Sciences à Saint-Étienne",
        "place": "Saint-Etienne",
        "schedule": "Du lundi au vendredi 9h45 à 14h15",
        "url": "https://www.crous-lyon.fr/restaurant/cafeteria-des-sciences-a-saint-etienne/",
        "cp": "42100",
        "address": "23 Rue Docteur Paul Michelon",
        "city": "Saint-Étienne",
        "phone": "04 77 30 33 00",
        "img": "https://ephoto.nuonet.fr/link/wau19ocd3jecw74.jpeg",
        "meals": [],
        "crous_id": 1,
        "lat": 45.42281,
        "lon": 4.425474
    },
    {
        "id": 10,
        "name": "Cafétéria Filtre",
        "place": "Porte des Alpes",
        "schedule": "Du lundi au vendrediDe 7h30 à 17h",
        "url": "https://www.crous-lyon.fr/restaurant/cafeteria-filtre/",
        "cp": "69500",
        "address": "5 Avenue Pierre Mendès France",
        "city": "Bron",
        "phone": "04 78 77 44 11",
        "img": "https://ephoto.nuonet.fr/link/ban19obkezjvf8g.jpeg",
        "meals": [],
        "crous_id": 1,
        "lat": 45.722593,
        "lon": 4.915127
    },
    {
        "id": 11,
        "name": "Cafétéria Horizon",
        "place": "Lyon 5ème",
        "schedule": "Du lundi au vendredi 7h30 à 14h",
        "url": "https://www.crous-lyon.fr/restaurant/cafeteria-horizon/",
        "cp": "69005",
        "address": "Montée Nicolas de Lange",
        "city": "Lyon",
        "phone": "04 72 77 28 06",
        "img": "https://ephoto.nuonet.fr/link/umv19oc2rg6lw8w.jpeg",
        "meals": [],
        "crous_id": 1,
        "lat": 45.76344,
        "lon": 4.822397
    },
    {
        "id": 12,
        "name": "Cafétéria IUT à Saint-Étienne",
        "place": "Saint-Etienne",
        "schedule": "Du lundi au vendredi7h30 à 14h",
        "url": "https://www.crous-lyon.fr/restaurant/cafeteria-iut-a-saint-etienne/",
        "cp": "42100",
        "address": "28 Avenue Léon Jouhaux",
        "city": "Saint-Étienne",
        "phone": "04 77 30 33 00",
        "img": "https://ephoto.nuonet.fr/link/biu19ocbzxgei9s.jpeg",
        "meals": [],
        "crous_id": 1,
        "lat": 45.423505,
        "lon": 4.4307
    },
    {
        "id": 13,
        "name": "Cafétéria Le Corner",
        "place": "Les Quais - Berges du Rhône",
        "schedule": "Du lundi au vendredi 7h45 à 16h",
        "url": "https://www.crous-lyon.fr/restaurant/cafeteria-le-corner/",
        "cp": "69007",
        "address": "Rue Professeur Charles Appleton",
        "city": "Lyon",
        "phone": "04 37 37 41 26",
        "img": "https://ephoto.nuonet.fr/link/xgm19u7ovzxzcow.jpeg",
        "meals": [],
        "crous_id": 1,
        "lat": 45.746083,
        "lon": 4.834984
    },
    {
        "id": 14,
        "name": "Cafétéria le Labo",
        "place": "Rockefeller",
        "schedule": "Du lundi au vendredi7h30 à 17h",
        "url": "https://www.crous-lyon.fr/restaurant/cafeteria-le-labo/",
        "cp": "69008",
        "address": "11 Rue Guillaume Paradin",
        "city": "Lyon",
        "phone": "04 72 80 13 15",
        "img": "https://ephoto.nuonet.fr/link/axl19obili02m5c.jpeg",
        "meals": [],
        "crous_id": 1,
        "lat": 45.738076,
        "lon": 4.887029
    },
    {
        "id": 15,
        "name": "Cafétéria Le Studio",
        "place": "Lyon Tech-la Doua Villeurbanne",
        "schedule": "Du lundi au vendredi De 7h30 à 17h",
        "url": "https://www.crous-lyon.fr/restaurant/cafeteria-le-studio/",
        "cp": "69100",
        "address": "1 Rue de la Technologie",
        "city": "Villeurbanne",
        "phone": "",
        "img": "https://ephoto.nuonet.fr/link/hfp19o9gej08oqo.jpeg",
        "meals": [],
        "crous_id": 1,
        "lat": 45.78597,
        "lon": 4.882445
    },
    {
        "id": 16,
        "name": "Cafétéria l’EsCaLe",
        "place": "Ecole Centrale",
        "schedule": "Du lundi au vendredi11h30 à 14h30  et 18h à 20h",
        "url": "https://www.crous-lyon.fr/restaurant/cafeteria-lescale/",
        "cp": "69130",
        "address": "51 Chemin des Mouilles",
        "city": "Écully",
        "phone": "",
        "img": "http://www.crous-lyon.fr/wp-content/uploads/sites/33/2022/10/Escale-1.jpg",
        "meals": [],
        "crous_id": 1,
        "lat": 45.783952,
        "lon": 4.770857
    },
    {
        "id": 17,
        "name": "Cafétéria Lyon Sud",
        "place": "Lyon Sud",
        "schedule": "Du lundi au vendredi8h00 à 14h00",
        "url": "https://www.crous-lyon.fr/restaurant/cafeteria-lyon-sud/",
        "cp": "69310",
        "address": "Chemin du Grand Revoyet",
        "city": "Pierre-Bénite",
        "phone": "04 72 30 27 50",
        "img": "https://ephoto.nuonet.fr/link/kxx19oc4z6b1vk0.jpeg",
        "meals": [],
        "crous_id": 1,
        "lat": 45.703482,
        "lon": 4.805235
    },
    {
        "id": 18,
        "name": "Cafétéria Manufacture à Saint-Étienne",
        "place": "Saint-Etienne",
        "schedule": "Du lundi au vendredi 7h30 à 13h30",
        "url": "https://www.crous-lyon.fr/restaurant/cafeteria-manufacture-a-saint-etienne/",
        "cp": "42000",
        "address": "18 Rue Professeur Benoît Lauras",
        "city": "Saint-Étienne",
        "phone": "04 77 30 33 00",
        "img": "https://ephoto.nuonet.fr/link/oun19ocdiy54s3k.jpeg",
        "meals": [],
        "crous_id": 1,
        "lat": 45.453303,
        "lon": 4.386089
    },
    {
        "id": 19,
        "name": "Cafétéria Médecine à Saint-Étienne",
        "place": "Saint-Etienne",
        "schedule": "Du lundi au vendredi7h30 à 14h30",
        "url": "https://www.crous-lyon.fr/restaurant/cafeteria-medecine-a-saint-etienne/",
        "cp": "42270",
        "address": "10 Chemin de la Marandière",
        "city": "Saint-Priest-en-Jarez",
        "phone": "04 77 42 14 18",
        "img": "https://ephoto.nuonet.fr/link/wau19ocetc68t34.jpeg",
        "meals": [],
        "crous_id": 1,
        "lat": 45.479604,
        "lon": 4.361924
    },
    {
        "id": 20,
        "name": "Cafétéria Monod",
        "place": "ENS-Gerland",
        "schedule": "8h à 15h",
        "url": "https://www.crous-lyon.fr/restaurant/cafeteria-monod/",
        "cp": "69007",
        "address": "Allée d'Italie",
        "city": "Lyon",
        "phone": "04 72 72 80 40",
        "img": "https://ephoto.nuonet.fr/link/olp19obnq3cuskg.jpeg",
        "meals": [],
        "crous_id": 1,
        "lat": 45.72979,
        "lon": 4.828583
    },
    {
        "id": 21,
        "name": "Cafétéria Rabelais",
        "place": "Rockefeller",
        "schedule": "Du lundi au vendredi 7h30 à 17h",
        "url": "https://www.crous-lyon.fr/restaurant/cafeteria-rabelais/",
        "cp": "69008",
        "address": "8 Avenue Rockefeller",
        "city": "Lyon",
        "phone": "04 78 75 97 04",
        "img": "https://ephoto.nuonet.fr/link/aog19obh971ze1s.jpeg",
        "meals": [],
        "crous_id": 1,
        "lat": 45.742275,
        "lon": 4.880108
    },
    {
        "id": 22,
        "name": "Cafétéria Saint-Paul",
        "place": "Lyon 2ème",
        "schedule": "Du lundi au vendredi 7h30 à 16h30",
        "url": "https://www.crous-lyon.fr/restaurant/cafeteria-saint-paul/",
        "cp": "69002",
        "address": "10 Place des Archives",
        "city": "Lyon",
        "phone": "04 72 32 51 01",
        "img": "https://ephoto.nuonet.fr/link/ngd19ochiwxmzds.jpeg",
        "meals": [],
        "crous_id": 1,
        "lat": 45.747105,
        "lon": 4.826206
    },
    {
        "id": 23,
        "name": "Cafétéria Tréfilerie à Saint-Étienne",
        "place": "Saint-Etienne",
        "schedule": "Du lundi au vendredi 11h à 13h30",
        "url": "https://www.crous-lyon.fr/restaurant/cafeteria-trefilerie-a-saint-etienne/",
        "cp": "42100",
        "address": "Rue Edouard Vaillant",
        "city": "Saint-Étienne",
        "phone": "04 77 37 44 52",
        "img": "",
        "meals": [],
        "crous_id": 1,
        "lat": 45.427859,
        "lon": 4.393336
    },
    {
        "id": 24,
        "name": "Le Kiosque à Bron",
        "place": "Porte des Alpes",
        "schedule": "Du lundi au vendredi 7h30 à 17h",
        "url": "https://www.crous-lyon.fr/restaurant/le-kiosque-a-bron/",
        "cp": "69500",
        "address": "5 Avenue Pierre Mendès France",
        "city": "Bron",
        "phone": "",
        "img": "https://ephoto.nuonet.fr/link/khg19obl7aak7j4.jpeg",
        "meals": [],
        "crous_id": 1,
        "lat": 45.722593,
        "lon": 4.915127
    },
    {
        "id": 25,
        "name": "Restaurant administratif – Cool Heure Café",
        "place": "",
        "schedule": "Du lundi au vendredi De 11h30 à 13h30",
        "url": "https://www.crous-lyon.fr/restaurant/restaurant-administratif-cool-heure-cafe/",
        "cp": "69008",
        "address": "6 Cours Albert Thomas",
        "city": "Lyon",
        "phone": "",
        "img": "",
        "meals": [],
        "crous_id": 1,
        "lat": 45.748813,
        "lon": 4.861412
    },
    {
        "id": 26,
        "name": "Restaurant de Bron",
        "place": "Porte des Alpes",
        "schedule": "Du lundi au vendredi 11h30 à 14h10",
        "url": "https://www.crous-lyon.fr/restaurant/restaurant-de-bron/",
        "cp": "69500",
        "address": "5 Avenue Pierre Mendès France",
        "city": "Bron",
        "phone": "04 78 77 30 33/3",
        "img": "https://ephoto.nuonet.fr/link/rew19objnpqd0u8.jpeg",
        "meals": [],
        "crous_id": 1,
        "lat": 45.722593,
        "lon": 4.915127
    },
    {
        "id": 27,
        "name": "Restaurant des Quais",
        "place": "Les Quais - Berges du Rhône",
        "schedule": "Du lundi au vendredi 11h15 à 13h45",
        "url": "https://www.crous-lyon.fr/restaurant/restaurant-des-quais/",
        "cp": "69007",
        "address": "94 Rue Pasteur",
        "city": "Lyon",
        "phone": "04 72 80 17 44",
        "img": "https://ephoto.nuonet.fr/link/uro19pyltfo0ku8.jpeg",
        "meals": [],
        "crous_id": 1,
        "lat": 45.748298,
        "lon": 4.836525
    },
    {
        "id": 28,
        "name": "Restaurant Descartes",
        "place": "ENS-Gerland",
        "schedule": "11h30 à 14h",
        "url": "https://www.crous-lyon.fr/restaurant/restaurant-descartes/",
        "cp": "69007",
        "address": "15 Parvis René Descartes",
        "city": "Lyon",
        "phone": "04 37 37 61 94",
        "img": "https://ephoto.nuonet.fr/link/xca19obmqjd94zk.jpeg",
        "meals": [],
        "crous_id": 1,
        "lat": 45.733056,
        "lon": 4.83401
    },
    {
        "id": 29,
        "name": "Restaurant École Centrale de Lyon",
        "place": "Ecole Centrale",
        "schedule": "Du lundi au vendredi 11h30 à 13h30",
        "url": "https://www.crous-lyon.fr/restaurant/restaurant-ecole-centrale-de-lyon/",
        "cp": "69130",
        "address": "51 Chemin des Mouilles",
        "city": "Écully",
        "phone": "04 72 18 63 88",
        "img": "https://ephoto.nuonet.fr/link/wlz19oc3b6ec7eo.jpeg",
        "meals": [],
        "crous_id": 1,
        "lat": 45.783952,
        "lon": 4.770857
    },
    {
        "id": 30,
        "name": "Restaurant ENTPE",
        "place": "ENTPE",
        "schedule": "Du lundi au vendredi 11h30 - 13h30",
        "url": "https://www.crous-lyon.fr/restaurant/restaurant-entpe/",
        "cp": "69120",
        "address": "3 Rue Maurice Audin",
        "city": "Vaulx-en-Velin",
        "phone": "04 72 04 71 90",
        "img": "https://ephoto.nuonet.fr/link/ajh19o9iqtqf8jk.jpeg",
        "meals": [],
        "crous_id": 1,
        "lat": 45.779613,
        "lon": 4.922664
    },
    {
        "id": 31,
        "name": "Restaurant IUT Gratte-Ciel",
        "place": "IUT Gratte Ciel Villeurbanne",
        "schedule": "Du lundi au vendredi 11h15 - 13h30",
        "url": "https://www.crous-lyon.fr/restaurant/restaurant-iut-gratte-ciel/",
        "cp": "69100",
        "address": "17 Rue de France",
        "city": "Villeurbanne",
        "phone": "04 78 03 53 48",
        "img": "https://ephoto.nuonet.fr/link/qxe19o9i90xrrds.jpeg",
        "meals": [],
        "crous_id": 1,
        "lat": 45.76714,
        "lon": 4.886973
    },
    {
        "id": 32,
        "name": "Restaurant Manufacture des Tabacs",
        "place": "Manufacture",
        "schedule": "Espace rue Sud (sous-sol)Du lundi au vendredi 11h15 à 14h15",
        "url": "https://www.crous-lyon.fr/restaurant/restaurant-manufacture-des-tabacs/",
        "cp": "69008",
        "address": "1 Avenue des Frères Lumière",
        "city": "Lyon",
        "phone": "04 78 76 15 96",
        "img": "https://www.crous-lyon.fr/wp-content/uploads/sites/16/2023/11/WP_20231020_01_16_08_Pro-scaled.jpg",
        "meals": [],
        "crous_id": 1,
        "lat": 45.747183,
        "lon": 4.859749
    },
    {
        "id": 33,
        "name": "Restaurant Métare à Saint-Étienne",
        "place": "Saint-Etienne",
        "schedule": "Du lundi au vendredi11h à 13h30",
        "url": "https://www.crous-lyon.fr/restaurant/restaurant-metare-a-saint-etienne/",
        "cp": "42100",
        "address": "25 Rue Docteur Paul Michelon",
        "city": "Saint-Étienne",
        "phone": "04 77 30 33 00",
        "img": "https://ephoto.nuonet.fr/link/hdq19oc7la5xrs0.jpeg",
        "meals": [],
        "crous_id": 1,
        "lat": 45.421831,
        "lon": 4.426611
    },
    {
        "id": 34,
        "name": "Restaurant Puvis de Chavannes",
        "place": "",
        "schedule": "11h15 à 13h45",
        "url": "https://www.crous-lyon.fr/restaurant/restaurant-puvis-de-chavannes-2/",
        "cp": "69100",
        "address": "118 Boulevard du 11 Novembre 1918",
        "city": "Villeurbanne",
        "phone": "",
        "img": "https://ephoto.nuonet.fr/link/lip1ac4xtitp2cg.jpeg",
        "meals": [],
        "crous_id": 1,
        "lat": 45.778826,
        "lon": 4.872026
    },
    {
        "id": 35,
        "name": "Restaurant Rockefeller",
        "place": "Rockefeller",
        "schedule": "Du lundi au vendredi 11h30 à 13h45",
        "url": "https://www.crous-lyon.fr/restaurant/restaurant-rockefeller/",
        "cp": "69008",
        "address": "6 Rue Volney",
        "city": "Lyon",
        "phone": "04 78 78 90 80",
        "img": "https://ephoto.nuonet.fr/link/qom19obfi6k9h4w.jpeg",
        "meals": [],
        "crous_id": 1,
        "lat": 45.741236,
        "lon": 4.883023
    },
    {
        "id": 36,
        "name": "Restaurant Tréfilerie à Saint-Étienne",
        "place": "Saint-Etienne",
        "schedule": "Du lundi au vendredi11h à 13h30",
        "url": "https://www.crous-lyon.fr/restaurant/restaurant-trefilerie-a-saint-etienne/",
        "cp": "42100",
        "address": "Rue Edouard Vaillant",
        "city": "Saint-Étienne",
        "phone": "04 77 37 44 52",
        "img": "",
        "meals": [],
        "crous_id": 1,
        "lat": 45.427859,
        "lon": 4.393336
    }
]